{
"type": "FeatureCollection",
"name": "all_projects",
"crs": { "type": "name", "properties": { "name": "urn:ogc:def:crs:OGC:1.3:CRS84" } },
"features": [
{ "type": "Feature", "properties": { "Latitude": -18.55, "Longitude": 27.01666667, "Name": "Dopota", "Type": "Dam" }, "geometry": { "type": "Point", "coordinates": [ 27.009626165359123, -18.546309730517976 ] } },
{ "type": "Feature", "properties": { "Latitude": -18.56666667, "Longitude": 27.08333333, "Name": "Masikili", "Type": "Garden" }, "geometry": { "type": "Point", "coordinates": [ 27.101552019966519, -18.564899618545198 ] } },
{ "type": "Feature", "properties": { "Latitude": -18.51805556, "Longitude": 26.96666667, "Name": "Lupote", "Type": "Clinic" }, "geometry": { "type": "Point", "coordinates": [ 26.966005406200484, -18.509997163673521 ] } },
{ "type": "Feature", "properties": { "Latitude": -18.53472222, "Longitude": 27.01666667, "Name": "Siyanyanga", "Type": "Garden" }, "geometry": { "type": "Point", "coordinates": [ 27.016229000093865, -18.512925091610189 ] } },
{ "type": "Feature", "properties": { "Latitude": -18.56805556, "Longitude": 27.01666667, "Name": "Nechilibi High", "Type": "School" }, "geometry": { "type": "Point", "coordinates": [ 27.019618638762285, -18.562172752964191 ] } },
{ "type": "Feature", "properties": { "Latitude": -18.55138889, "Longitude": 27.0, "Name": "Dopota Primary", "Type": "School" }, "geometry": { "type": "Point", "coordinates": [ 27.006760286334998, -18.551399473988578 ] } },
{ "type": "Feature", "properties": { "Latitude": -18.56805556, "Longitude": 27.01666667, "Name": "SDC", "Type": "Poultry" }, "geometry": { "type": "Point", "coordinates": [ 27.023573607256569, -18.56482976409437 ] } },
{ "type": "Feature", "properties": { "Latitude": -18.56666667, "Longitude": 27.08333333, "Name": "Mabale Primary", "Type": "School" }, "geometry": { "type": "Point", "coordinates": [ 27.079177266819233, -18.567243715300421 ] } },
{ "type": "Feature", "properties": { "Latitude": -18.56666667, "Longitude": 27.03333333, "Name": "Sonyathi", "Type": "Borehole" }, "geometry": { "type": "Point", "coordinates": [ 27.035617251667897, -18.560409536180494 ] } },
{ "type": "Feature", "properties": { "Latitude": -18.51666667, "Longitude": 26.96666667, "Name": "Lupote Primary", "Type": "School" }, "geometry": { "type": "Point", "coordinates": [ 26.972812040754182, -18.510224076785498 ] } },
{ "type": "Feature", "properties": { "Latitude": -18.5, "Longitude": 26.85, "Name": "Makwandara Secondary", "Type": "School" }, "geometry": { "type": "Point", "coordinates": [ 26.847773667306697, -18.506432604907921 ] } },
{ "type": "Feature", "properties": { "Latitude": -18.5, "Longitude": 26.91666667, "Name": "Damba Secondary", "Type": "School" }, "geometry": { "type": "Point", "coordinates": [ 26.915014385608281, -18.491405391479784 ] } },
{ "type": "Feature", "properties": { "Latitude": 0.0, "Longitude": 0.0, "Name": "Mabale", "Type": "Clinic" }, "geometry": { "type": "Point", "coordinates": [ 27.070114520955045, -18.57181212102493 ] } },
{ "type": "Feature", "properties": { "Latitude": 0.0, "Longitude": 0.0, "Name": "Lupote Secondary", "Type": "School" }, "geometry": { "type": "Point", "coordinates": [ 26.978760334147147, -18.510954979958772 ] } },
{ "type": "Feature", "properties": { "Latitude": 0.0, "Longitude": 0.0, "Name": "Sonyathi", "Type": "Garden" }, "geometry": { "type": "Point", "coordinates": [ 27.03607616215719, -18.560312048022382 ] } },
{ "type": "Feature", "properties": { "Latitude": 0.0, "Longitude": 0.0, "Name": "Dopota", "Type": "Garden" }, "geometry": { "type": "Point", "coordinates": [ 27.005408965214677, -18.551037954298025 ] } },
{ "type": "Feature", "properties": { "Latitude": 0.0, "Longitude": 0.0, "Name": "Sianyanga Primary", "Type": "School" }, "geometry": { "type": "Point", "coordinates": [ 27.033633290189389, -18.496514958858029 ] } },
{ "type": "Feature", "properties": { "Latitude": 0.0, "Longitude": 0.0, "Name": "Matshabela", "Type": "Garden" }, "geometry": { "type": "Point", "coordinates": [ 27.009914302049058, -18.558196190874064 ] } },
{ "type": "Feature", "properties": { "Latitude": 0.0, "Longitude": 0.0, "Name": "Ndajila", "Type": "Garden" }, "geometry": { "type": "Point", "coordinates": [ 27.093208366899454, -18.557780406892732 ] } },
{ "type": "Feature", "properties": { "Latitude": 0.0, "Longitude": 0.0, "Name": "Mapane", "Type": "Garden" }, "geometry": { "type": "Point", "coordinates": [ 27.009390720949877, -18.530781730671407 ] } },
{ "type": "Feature", "properties": { "Latitude": 0.0, "Longitude": 0.0, "Name": "Chibombo", "Type": "Garden" }, "geometry": { "type": "Point", "coordinates": [ 27.02743678835942, -18.541230709692204 ] } },
{ "type": "Feature", "properties": { "Latitude": 0.0, "Longitude": 0.0, "Name": "Dopota 2 BH", "Type": "Borehole" }, "geometry": { "type": "Point", "coordinates": [ 27.006024884577776, -18.551343755644147 ] } },
{ "type": "Feature", "properties": { "Latitude": 0.0, "Longitude": 0.0, "Name": "Mtshayi 1", "Type": "Garden" }, "geometry": { "type": "Point", "coordinates": [ 27.086966908403575, -18.539093102198017 ] } },
{ "type": "Feature", "properties": { "Latitude": 0.0, "Longitude": 0.0, "Name": "Simkululwe", "Type": "Garden" }, "geometry": { "type": "Point", "coordinates": [ 27.035296914007347, -18.560357354093821 ] } },
{ "type": "Feature", "properties": { "Latitude": 0.0, "Longitude": 0.0, "Name": "Sonyathi Sewing Club", "Type": "Clubs" }, "geometry": { "type": "Point", "coordinates": [ 27.036419018047191, -18.559875735003352 ] } },
{ "type": "Feature", "properties": { "Latitude": 0.0, "Longitude": 0.0, "Name": "Dopota Sewing Club", "Type": "Clubs" }, "geometry": { "type": "Point", "coordinates": [ 27.010683933220538, -18.557000208386153 ] } },
{ "type": "Feature", "properties": { "Latitude": 0.0, "Longitude": 0.0, "Name": "Dopota 1", "Type": "Borehole" }, "geometry": { "type": "Point", "coordinates": [ 27.005459300894632, -18.55125083329532 ] } },
{ "type": "Feature", "properties": { "Latitude": 0.0, "Longitude": 0.0, "Name": "Matshabela", "Type": "Borehole" }, "geometry": { "type": "Point", "coordinates": [ 27.009686503727121, -18.558208619694462 ] } },
{ "type": "Feature", "properties": { "Latitude": 0.0, "Longitude": 0.0, "Name": "SDC", "Type": "Borehole" }, "geometry": { "type": "Point", "coordinates": [ 27.024006380668222, -18.564888925503237 ] } },
{ "type": "Feature", "properties": { "Latitude": 0.0, "Longitude": 0.0, "Name": "Simkululwe", "Type": "Borehole" }, "geometry": { "type": "Point", "coordinates": [ 27.035249739712935, -18.560419224019572 ] } },
{ "type": "Feature", "properties": { "Latitude": 0.0, "Longitude": 0.0, "Name": "Masikili", "Type": "Borehole" }, "geometry": { "type": "Point", "coordinates": [ 27.101571059342575, -18.564775809180698 ] } },
{ "type": "Feature", "properties": { "Latitude": 0.0, "Longitude": 0.0, "Name": "Ndajila", "Type": "Borehole" }, "geometry": { "type": "Point", "coordinates": [ 27.093114332010277, -18.557872171549022 ] } },
{ "type": "Feature", "properties": { "Latitude": 0.0, "Longitude": 0.0, "Name": "Mtshayi 1", "Type": "Borehole" }, "geometry": { "type": "Point", "coordinates": [ 27.087340416442068, -18.539036255204962 ] } },
{ "type": "Feature", "properties": { "Latitude": 0.0, "Longitude": 0.0, "Name": "Chibombo", "Type": "Borehole" }, "geometry": { "type": "Point", "coordinates": [ 27.027154434642597, -18.541476287452696 ] } },
{ "type": "Feature", "properties": { "Latitude": 0.0, "Longitude": 0.0, "Name": "Kulisumpula Sewing Club", "Type": "Clubs" }, "geometry": { "type": "Point", "coordinates": [ 27.036873847508943, -18.529500090710268 ] } },
{ "type": "Feature", "properties": { "Latitude": 0.0, "Longitude": 0.0, "Name": "Chiguswi Support Group", "Type": "Poultry" }, "geometry": { "type": "Point", "coordinates": [ 27.036710588508356, -18.529240654587163 ] } },
{ "type": "Feature", "properties": { "Latitude": 0.0, "Longitude": 0.0, "Name": "Chiguswi", "Type": "Borehole" }, "geometry": { "type": "Point", "coordinates": [ 27.037586556567444, -18.539547003924916 ] } },
{ "type": "Feature", "properties": { "Latitude": 0.0, "Longitude": 0.0, "Name": "Mapane", "Type": "Borehole" }, "geometry": { "type": "Point", "coordinates": [ 27.009129661618779, -18.530719832402418 ] } },
{ "type": "Feature", "properties": { "Latitude": 0.0, "Longitude": 0.0, "Name": "Sianyanga", "Type": "Borehole" }, "geometry": { "type": "Point", "coordinates": [ 27.01623308002161, -18.512926458624204 ] } },
{ "type": "Feature", "properties": { "Latitude": 0.0, "Longitude": 0.0, "Name": "Dopota Primary  (Support Group)", "Type": "Garden" }, "geometry": { "type": "Point", "coordinates": [ 27.007412596267113, -18.551608863919171 ] } },
{ "type": "Feature", "properties": { "Latitude": 0.0, "Longitude": 0.0, "Name": "Zamalawe Support Group", "Type": "Poultry" }, "geometry": { "type": "Point", "coordinates": [ 26.999630030791209, -18.552645763010673 ] } },
{ "type": "Feature", "properties": { "Latitude": 0.0, "Longitude": 0.0, "Name": "Sipepa Secondary", "Type": "School" }, "geometry": { "type": "Point", "coordinates": [ 27.654967183093486, -19.283041496640919 ] } },
{ "type": "Feature", "properties": { "Latitude": 0.0, "Longitude": 0.0, "Name": "Gwaai Primary", "Type": "School" }, "geometry": { "type": "Point", "coordinates": [ 27.681185782744375, -19.279779944501506 ] } }
]
}
